[{
  "id": 2,
  "tipo": "parqueaderos",
  "nombre": "",
  "imagen": "63_3_a.jpg",
  "municipio": "Sincelejo",
  "departamento": "Sucre",
  "horario": "",
  "direccion": "",
  "email": "",
  "web": "",
  "otrosServiciosOfrecidos": "Parqueadero",
  "infoAdicional": "En Construcción",
  "lng": -75.40875,
  "lat": 9.2755833333333
}, {
  "id": 11,
  "tipo": "parqueaderos",
  "nombre": "",
  "imagen": "64_9_b.jpg",
  "municipio": "El Carmen de Bolívar",
  "departamento": "Bolívar",
  "horario": "",
  "direccion": "",
  "email": "",
  "web": "",
  "otrosServiciosOfrecidos": "Parqueadero",
  "infoAdicional": "",
  "lng": -75.1124166666667,
  "lat": 9.7081111111111
}, {
  "id": 21,
  "tipo": "parqueaderos",
  "nombre": "ESTADERO ANA",
  "imagen": "66_10_b.jpg",
  "municipio": "San Juan de Nepomuceno",
  "departamento": "Bolívar",
  "horario": "24 h",
  "direccion": "",
  "email": "",
  "web": "",
  "otrosServiciosOfrecidos": "Parqueadero 50 Vehiculos",
  "infoAdicional": "Gabriel Nuñez Administrador",
  "lng": -75.0810833333333,
  "lat": 9.96125
}, {
  "id": 30,
  "tipo": "parqueaderos",
  "nombre": "PARQUEADERO LA MOVIDA",
  "imagen": "Diapositiva5.png",
  "municipio": "Mosquera",
  "departamento": "Cundinamarca",
  "horario": "",
  "direccion": "",
  "email": "",
  "web": "",
  "otrosServiciosOfrecidos": "Montallantas y Parqueadero",
  "infoAdicional": "",
  "lng": -74.2147777777778,
  "lat": 4.7098055555556
}, {
  "id": 31,
  "tipo": "parqueaderos",
  "nombre": "",
  "imagen": "Diapositiva7.png",
  "municipio": "Funza",
  "departamento": "Cundinamarca",
  "horario": "24 h",
  "direccion": "",
  "email": "",
  "web": "",
  "otrosServiciosOfrecidos": "Montallantas, Montallantas y Parqueadero",
  "infoAdicional": "",
  "lng": -74.2099444444444,
  "lat": 4.71275
}, {
  "id": 33,
  "tipo": "parqueaderos",
  "nombre": "PUNTO APARTE",
  "imagen": "Diaposit_1.jpg",
  "municipio": "Funza",
  "departamento": "Cundinamarca",
  "horario": "",
  "direccion": "",
  "email": "",
  "web": "",
  "otrosServiciosOfrecidos": "Alojamiento, Restaurante, Montallantas, Parqueadero",
  "infoAdicional": "",
  "lng": -74.2016944444444,
  "lat": 4.7179166666667
}, {
  "id": 39,
  "tipo": "parqueaderos",
  "nombre": "EL TOLIMA",
  "imagen": "Diapositiva12.png",
  "municipio": "Funza",
  "departamento": "Cundinamarca",
  "horario": "24 h",
  "direccion": "",
  "email": "",
  "web": "",
  "otrosServiciosOfrecidos": "Parqueadero",
  "infoAdicional": "",
  "lng": -74.1921944444444,
  "lat": 4.72575
}, {
  "id": 41,
  "tipo": "parqueaderos",
  "nombre": "JAK",
  "imagen": "Diapositiva14.png",
  "municipio": "Funza",
  "departamento": "Cundinamarca",
  "horario": "24 h",
  "direccion": "",
  "email": "",
  "web": "",
  "otrosServiciosOfrecidos": "Parqueadero",
  "infoAdicional": "",
  "lng": -74.1883888888889,
  "lat": 4.7295833333333
}, {
  "id": 49,
  "tipo": "parqueaderos",
  "nombre": "",
  "imagen": "Diapositiva24.png",
  "municipio": "Cota",
  "departamento": "Cundinamarca",
  "horario": "",
  "direccion": "",
  "email": "",
  "web": "",
  "otrosServiciosOfrecidos": "Alojamiento, Parqueadero",
  "infoAdicional": "",
  "lng": -74.1633888888889,
  "lat": 4.7643055555556
}, {
  "id": 52,
  "tipo": "parqueaderos",
  "nombre": "SAN VICENTE",
  "imagen": "Diapositiva27.png",
  "municipio": "Cota",
  "departamento": "Cundinamarca",
  "horario": "",
  "direccion": "",
  "email": "",
  "web": "",
  "otrosServiciosOfrecidos": "Parqueadero",
  "infoAdicional": "",
  "lng": -74.22,
  "lat": 4.8131111111111
}, {
  "id": 62,
  "tipo": "parqueaderos",
  "nombre": "DONDE NIDIA",
  "imagen": "Diaposit_12.jpg",
  "municipio": "Guaduas",
  "departamento": "Cundinamarca",
  "horario": "",
  "direccion": "",
  "email": "",
  "web": "",
  "otrosServiciosOfrecidos": "Playa, Montallantas, Restaurantes, Gasolinera",
  "infoAdicional": "",
  "lng": -74.5382222222222,
  "lat": 5.0012777777778
}, {
  "id": 85,
  "tipo": "parqueaderos",
  "nombre": "",
  "imagen": "Diapositiva59.png",
  "municipio": "Guaduas",
  "departamento": "Cundinamarca",
  "horario": "24 h",
  "direccion": "",
  "email": "",
  "web": "",
  "otrosServiciosOfrecidos": "Parqueadero, Montallantas, Restaurante",
  "infoAdicional": "",
  "lng": -74.5961388888889,
  "lat": 5.0651944444444
}, {
  "id": 95,
  "tipo": "parqueaderos",
  "nombre": "",
  "imagen": "1_7_B.jpg",
  "municipio": "Bogotá",
  "departamento": "Cundinamarca",
  "horario": "24 h",
  "direccion": "",
  "email": "",
  "web": "",
  "otrosServiciosOfrecidos": "Parqueadero, Montallantas",
  "infoAdicional": "",
  "lng": -74.1598611111111,
  "lat": 4.6872777777778
}, {
  "id": 96,
  "tipo": "parqueaderos",
  "nombre": "CASANDRAS COLOMBIA SAS",
  "imagen": "1_9_B.jpg",
  "municipio": "Bogotá",
  "departamento": "Cundinamarca",
  "horario": "12 h",
  "direccion": "",
  "email": "",
  "web": "",
  "otrosServiciosOfrecidos": "Parqueadero, Montallantas",
  "infoAdicional": "Variedad de Talleres",
  "lng": -74.1661111111111,
  "lat": 4.6924722222222
}, {
  "id": 99,
  "tipo": "parqueaderos",
  "nombre": "TIBAN",
  "imagen": "1_12_A.jpg",
  "municipio": "Bogotá",
  "departamento": "Cundinamarca",
  "horario": "",
  "direccion": "",
  "email": "",
  "web": "",
  "otrosServiciosOfrecidos": "Parqueadero, Montallantas",
  "infoAdicional": "",
  "lng": -74.1686388888889,
  "lat": 4.6953055555556
}, {
  "id": 100,
  "tipo": "parqueaderos",
  "nombre": "PUNTO RIO",
  "imagen": "1_13_A.jpg",
  "municipio": "Bogotá",
  "departamento": "Cundinamarca",
  "horario": "24 h",
  "direccion": "",
  "email": "",
  "web": "",
  "otrosServiciosOfrecidos": "Parqueadero, Lavadero, Montallantas",
  "infoAdicional": "",
  "lng": -74.1704722222222,
  "lat": 4.6957777777778
}, {
  "id": 109,
  "tipo": "parqueaderos",
  "nombre": "QUITO",
  "imagen": "F2.jpg",
  "municipio": "Bogotá",
  "departamento": "Cundinamarca",
  "horario": "24 h",
  "direccion": "",
  "email": "",
  "web": "",
  "otrosServiciosOfrecidos": "Parqueadero, Restaurante",
  "infoAdicional": "",
  "lng": -74.2125277777778,
  "lat": 4.6972777777778
}, {
  "id": 114,
  "tipo": "parqueaderos",
  "nombre": "BUCARAMANGA",
  "imagen": "7_4_B.jpg",
  "municipio": "Mosquera",
  "departamento": "Cundinamarca",
  "horario": "",
  "direccion": "",
  "email": "",
  "web": "",
  "otrosServiciosOfrecidos": "Parqueadero, Montallantas",
  "infoAdicional": "",
  "lng": -74.2415,
  "lat": 4.72875
}, {
  "id": 115,
  "tipo": "parqueaderos",
  "nombre": "NUEVA sEDE PARQUEADERO INDUSTRIAL",
  "imagen": "7_5_B.jpg",
  "municipio": "Mosquera",
  "departamento": "Cundinamarca",
  "horario": "",
  "direccion": "",
  "email": "",
  "web": "",
  "otrosServiciosOfrecidos": "Parqueadero, Montallantas, Restaurante",
  "infoAdicional": "",
  "lng": -74.2415,
  "lat": 4.72875
}, {
  "id": 121,
  "tipo": "parqueaderos",
  "nombre": "",
  "imagen": "7_13.jpg",
  "municipio": "Interurbano",
  "departamento": "Cundinamarca",
  "horario": "12 h",
  "direccion": "",
  "email": "",
  "web": "",
  "otrosServiciosOfrecidos": "Parqueadero, Montallantas",
  "infoAdicional": "",
  "lng": -74.3354722222222,
  "lat": 4.7936666666667
}, {
  "id": 126,
  "tipo": "parqueaderos",
  "nombre": "ESSO",
  "imagen": "7_18_A.jpg",
  "municipio": "Facatativá",
  "departamento": "Cundinamarca",
  "horario": "24 h",
  "direccion": "",
  "email": "",
  "web": "",
  "otrosServiciosOfrecidos": "Montallantas, Parqueadero, Restaurante",
  "infoAdicional": "",
  "lng": -74.3616944444444,
  "lat": 4.81525
}, {
  "id": 128,
  "tipo": "parqueaderos",
  "nombre": "DE LA SABANA",
  "imagen": "7_21_A.jpg",
  "municipio": "Facatativá",
  "departamento": "Cundinamarca",
  "horario": "24 h",
  "direccion": "",
  "email": "",
  "web": "",
  "otrosServiciosOfrecidos": "Parqueadero, Montallantas",
  "infoAdicional": "",
  "lng": -74.3681111111111,
  "lat": 4.821
}, {
  "id": 134,
  "tipo": "parqueaderos",
  "nombre": "",
  "imagen": "9_1_A.jpg",
  "municipio": "Interurbano",
  "departamento": "Cundinamarca",
  "horario": "24 h",
  "direccion": "",
  "email": "",
  "web": "",
  "otrosServiciosOfrecidos": "Parqueadero, Alojamiento",
  "infoAdicional": "",
  "lng": -74.4381944444444,
  "lat": 4.8814722222222
}, {
  "id": 138,
  "tipo": "parqueaderos",
  "nombre": "ÁREA DE DESCANSO JALISCO",
  "imagen": "9_8_B.jpg",
  "municipio": "Interurbano",
  "departamento": "Cundinamarca",
  "horario": "",
  "direccion": "",
  "email": "",
  "web": "",
  "otrosServiciosOfrecidos": "Parqueadero, Montallantas",
  "infoAdicional": "",
  "lng": -74.4255555555556,
  "lat": 4.9001666666667
}, {
  "id": 139,
  "tipo": "parqueaderos",
  "nombre": "EL EDEN DE JALISCO",
  "imagen": "9_10_A.jpg",
  "municipio": "Interurbano",
  "departamento": "Cundinamarca",
  "horario": "24 h",
  "direccion": "",
  "email": "",
  "web": "",
  "otrosServiciosOfrecidos": "Parqueadero, Alojamiento, Restaurante, Montallantas",
  "infoAdicional": "",
  "lng": -74.4269722222222,
  "lat": 4.9026111111111
}, {
  "id": 148,
  "tipo": "parqueaderos",
  "nombre": "EDS LA BASCULA",
  "imagen": "68_1a.jpg",
  "municipio": "Interurbano",
  "departamento": "Bolívar",
  "horario": "24 h",
  "direccion": "Troncal De Occidente Km60",
  "email": "",
  "web": "",
  "otrosServiciosOfrecidos": "Llanteria, Estación de Servicios, Baños, Parqueadero",
  "infoAdicional": "Descuentos en Combustible para Transportadores",
  "lng": -75.2630555555556,
  "lat": 10.1359444444444
}, {
  "id": 151,
  "tipo": "parqueaderos",
  "nombre": "CENTRO LOGISTICO Y TECNICENTRO",
  "imagen": "70_5b.jpg",
  "municipio": "Mamonal",
  "departamento": "Bolívar",
  "horario": "24 h",
  "direccion": "",
  "email": "centrologisticoytecnicentromamonal@hotmail.com",
  "web": "",
  "otrosServiciosOfrecidos": "Parqueadero, Montallantas, Restaurante, Lujos",
  "infoAdicional": "Restaurante Rancho Mamonal 3122629855, Punto Lujos",
  "lng": -75.48575,
  "lat": 10.3441666666667
}, {
  "id": 153,
  "tipo": "parqueaderos",
  "nombre": "PARQUEADERO RESTAURANTE",
  "imagen": "70_7a.jpg",
  "municipio": "Mamonal",
  "departamento": "Bolívar",
  "horario": "",
  "direccion": "",
  "email": "",
  "web": "",
  "otrosServiciosOfrecidos": "Parqueadero, Montallantas, Restaurante, Lujos",
  "infoAdicional": "",
  "lng": -75.4828611111111,
  "lat": 10.3378611111111
}, {
  "id": 167,
  "tipo": "parqueaderos",
  "nombre": "SERVITRADE",
  "imagen": "5_P_c.jpg",
  "municipio": "Interurbano",
  "departamento": "Bolívar",
  "horario": "",
  "direccion": "",
  "email": "",
  "web": "",
  "otrosServiciosOfrecidos": "Parqueadero, Almacenamiento, Servicio Logistico",
  "infoAdicional": "",
  "lng": -75.4989444444444,
  "lat": 10.3548888888889
}, {
  "id": 181,
  "tipo": "parqueaderos",
  "nombre": "",
  "imagen": "22_P_a.jpg",
  "municipio": "Interurbano",
  "departamento": "Bolívar",
  "horario": "",
  "direccion": "Avda El Bosque, Diagonal Hotel Altamar",
  "email": "",
  "web": "",
  "otrosServiciosOfrecidos": "Parqueadero",
  "infoAdicional": "30 Camiones, Parqueadero",
  "lng": -75.5178611111111,
  "lat": 10.3885833333333
}, {
  "id": 201,
  "tipo": "parqueaderos",
  "nombre": "PARQUEADERO COCOLOCO",
  "imagen": "90_1_P_c.jpg",
  "municipio": "Barranquilla",
  "departamento": "Atlántico",
  "horario": "24 h",
  "direccion": "",
  "email": "",
  "web": "",
  "otrosServiciosOfrecidos": "Parqueadero",
  "infoAdicional": "50 Tractomulas",
  "lng": -74.85575,
  "lat": 10.9380277777778
}, {
  "id": 234,
  "tipo": "parqueaderos",
  "nombre": "SAN LUIS",
  "imagen": "18_4_B.jpg",
  "municipio": "Interurbano",
  "departamento": "Santander",
  "horario": "",
  "direccion": "",
  "email": "hotelcampestre@hotmail.com",
  "web": "www.hotelcampestresanluis.com",
  "otrosServiciosOfrecidos": "Parqueadero, Restaurante",
  "infoAdicional": "Wifi-Piscina",
  "lng": -74.4339166666667,
  "lat": 6.3360555555556
}, {
  "id": 263,
  "tipo": "parqueaderos",
  "nombre": "PARQUEADERO EL DESCANSO",
  "imagen": "62_10_P_a.jpg",
  "municipio": "Barranquilla",
  "departamento": "Atlántico",
  "horario": "24 h",
  "direccion": "Soledad, Avd Circunvalar Frente A La Escuela De Policia",
  "email": "",
  "web": "",
  "otrosServiciosOfrecidos": "Parqueadero",
  "infoAdicional": "Capacidad 100 Tractomulas",
  "lng": -74.7898055555556,
  "lat": 10.9253333333333
}, {
  "id": 265,
  "tipo": "parqueaderos",
  "nombre": "PARQUEADERO 24 HORAS CIRCUNVALAR",
  "imagen": "62_12_P_c.jpg",
  "municipio": "Barranquilla",
  "departamento": "Atlántico",
  "horario": "24 h",
  "direccion": "Av Circunvalar No.42-156 - Soledad",
  "email": "",
  "web": "",
  "otrosServiciosOfrecidos": "Parqueadero",
  "infoAdicional": "Capacidad 35 Tractomulas",
  "lng": -74.7845277777778,
  "lat": 10.9298333333333
}, {
  "id": 268,
  "tipo": "parqueaderos",
  "nombre": "PARQUEADERO LA GRANJA",
  "imagen": "62_18_P_c.jpg",
  "municipio": "Barranquilla",
  "departamento": "Atlántico",
  "horario": "24 h",
  "direccion": "Cra 15 Sur No.90B-100 - Barranquilla",
  "email": "",
  "web": "",
  "otrosServiciosOfrecidos": "Parqueadero, Llanteria, Mecanica General, Restaurante, engrase, lavado,",
  "infoAdicional": "",
  "lng": -74.8261666666667,
  "lat": 10.9277222222222
}, {
  "id": 269,
  "tipo": "parqueaderos",
  "nombre": "PARQUEADERO VILLA SAN CARLOS",
  "imagen": "62_20_P_b.jpg",
  "municipio": "Barranquilla",
  "departamento": "Atlántico",
  "horario": "24 h",
  "direccion": "Cra 1Sur 310 Y 108 Barranquilla",
  "email": "",
  "web": "",
  "otrosServiciosOfrecidos": "Parqueadero, lavadero",
  "infoAdicional": "Contacto: David Rafael Gamarra. Capacidad 25 Tractomulas",
  "lng": -74.8336944444444,
  "lat": 10.9353333333333
}, {
  "id": 271,
  "tipo": "parqueaderos",
  "nombre": "PARQUEADERO EL PUENTE",
  "imagen": "62_22_P_b.jpg",
  "municipio": "Barranquilla",
  "departamento": "Atlántico",
  "horario": "",
  "direccion": "Calle 110 No6A-40 Avd Circunvalar",
  "email": "",
  "web": "",
  "otrosServiciosOfrecidos": "Parqueadero",
  "infoAdicional": "",
  "lng": -74.8333888888889,
  "lat": 10.9456944444444
}, {
  "id": 272,
  "tipo": "parqueaderos",
  "nombre": "PARQUEADERO EL MADRUGON",
  "imagen": "62_23_P_c.jpg",
  "municipio": "Barranquilla",
  "departamento": "Atlántico",
  "horario": "24 h",
  "direccion": "Calle 100 No.6R-408 Avd Circunvalar",
  "email": "",
  "web": "",
  "otrosServiciosOfrecidos": "Parqueadero, Soldadura, Pintura, Fibra. Reparación y Montaje de Todo Tipo de Remolques, Cama Bajas, Niñeras, Volcos y Carboneros",
  "infoAdicional": "",
  "lng": -74.8355833333333,
  "lat": 10.9554166666667
}, {
  "id": 275,
  "tipo": "parqueaderos",
  "nombre": "PARQUEADERO EL BOGOTANO",
  "imagen": "61_3_P_d.jpg",
  "municipio": "Barranquilla",
  "departamento": "Atlántico",
  "horario": "",
  "direccion": "Cra 42 No39A-186. Round Point De La 19 Con Calle 30",
  "email": "",
  "web": "",
  "otrosServiciosOfrecidos": "Parqueadero, Restaurante. Mecanica General, Llanteria",
  "infoAdicional": "",
  "lng": -74.7822777777778,
  "lat": 10.9324166666667
}, {
  "id": 281,
  "tipo": "parqueaderos",
  "nombre": "PARQUEADERO ZONA CENTRO",
  "imagen": "B_7P_c.jpg",
  "municipio": "Barranquilla",
  "departamento": "Atlántico",
  "horario": "Parqueadero 24 h; Otros servicios 8 a.m.-4 p.m.",
  "direccion": "Via 40 No.65-101",
  "email": "",
  "web": "",
  "otrosServiciosOfrecidos": "Parqueadero, Lavadero, Restaurante",
  "infoAdicional": "Capacidad: 20 Tractomulas",
  "lng": -74.7841111111111,
  "lat": 10.9997222222222
}, {
  "id": 287,
  "tipo": "parqueaderos",
  "nombre": "PARQUEADERO LA 44",
  "imagen": "B_15P_c.jpg",
  "municipio": "Barranquilla",
  "departamento": "Atlántico",
  "horario": "24 h",
  "direccion": "Calle 6 Entre Cra 44 Y 45",
  "email": "",
  "web": "",
  "otrosServiciosOfrecidos": "Parqueadero, Reparacion de Muelles, Soldaura, Proximamente Restaurante, Publicidad Exterior de Tractomulas",
  "infoAdicional": "Taller Almacen Servimuelles Del Caribe, Capacidad para 40 Tractomulas",
  "lng": -74.7706666666667,
  "lat": 10.9841666666667
}, {
  "id": 291,
  "tipo": "parqueaderos",
  "nombre": "PARQUEADERO COVADONGA",
  "imagen": "B_20P_c.jpg",
  "municipio": "Barranquilla",
  "departamento": "Atlántico",
  "horario": "24 h",
  "direccion": "Cra 33 Calle 1 Orilla Del Rio",
  "email": "",
  "web": "",
  "otrosServiciosOfrecidos": "Parqueadero",
  "infoAdicional": "Parqueadero con capacidad superior a las 200 Tractomulas",
  "lng": -74.7660833333333,
  "lat": 10.9686111111111
}, {
  "id": 293,
  "tipo": "parqueaderos",
  "nombre": "PARQUEADERO EL RIO",
  "imagen": "B_22P_a.jpg",
  "municipio": "Barranquilla",
  "departamento": "Atlántico",
  "horario": "24 h",
  "direccion": "Cra 30 No.4-90",
  "email": "parqueaderodelrio@hotmail.com",
  "web": "",
  "otrosServiciosOfrecidos": "Parqueadero, Servicio Electrico, Mecanico, Montallantas, y Restaurante en Local contiguo",
  "infoAdicional": "Capacidad 300 Tractomulas. Servicio Restaurante contiguo al parquedero, con horario 6 a.m.-3 p.m.",
  "lng": -74.7663333333333,
  "lat": 10.9682777777778
}, {
  "id": 304,
  "tipo": "parqueaderos",
  "nombre": "EL RETEN",
  "imagen": "20_5_a.jpg",
  "municipio": "Interurbano",
  "departamento": "Santander",
  "horario": "24 h",
  "direccion": "",
  "email": "",
  "web": "",
  "otrosServiciosOfrecidos": "Parqueadero, Montallantas, Lavadero",
  "infoAdicional": "",
  "lng": -73.8260833333333,
  "lat": 7.0424722222222
}, {
  "id": 313,
  "tipo": "parqueaderos",
  "nombre": "PAGOTA",
  "imagen": "21_8_a.jpg",
  "municipio": "interurbano",
  "departamento": "Santander",
  "horario": "24 h",
  "direccion": "",
  "email": "",
  "web": "",
  "otrosServiciosOfrecidos": "Parqueadero, Alojamiento",
  "infoAdicional": "",
  "lng": -73.5696666666667,
  "lat": 7.1297777777778
}, {
  "id": 325,
  "tipo": "parqueaderos",
  "nombre": "",
  "imagen": "fot_7.jpg",
  "municipio": "interurbano",
  "departamento": "Santander",
  "horario": "24 h",
  "direccion": "",
  "email": "",
  "web": "",
  "otrosServiciosOfrecidos": "Parqueadero, Alojamiento",
  "infoAdicional": "",
  "lng": -73.5441111111111,
  "lat": 7.4061666666667
}, {
  "id": 339,
  "tipo": "parqueaderos",
  "nombre": "PALONEGRO",
  "imagen": "29_1_a.jpg",
  "municipio": "Lebrija",
  "departamento": "Santander",
  "horario": "24 h",
  "direccion": "",
  "email": "servicentropalonegro@hotmail.com",
  "web": "",
  "otrosServiciosOfrecidos": "Parqueadero, Alojamiento, Montallantas, Restaurante, Estación de Servicios",
  "infoAdicional": "",
  "lng": -73.2151388888889,
  "lat": 7.1116944444444
}, {
  "id": 344,
  "tipo": "parqueaderos",
  "nombre": "SERVITECA",
  "imagen": "29_6_a.jpg",
  "municipio": "Interurbano",
  "departamento": "Santander",
  "horario": "24 h",
  "direccion": "",
  "email": "",
  "web": "",
  "otrosServiciosOfrecidos": "Parqueadero, Restaurante, Estación de Servicios, Montallantas",
  "infoAdicional": "",
  "lng": -73.2278888888889,
  "lat": 7.116
}, {
  "id": 346,
  "tipo": "parqueaderos",
  "nombre": "",
  "imagen": "31_1_a.jpg",
  "municipio": "Bucaramanga",
  "departamento": "Santander",
  "horario": "24 h",
  "direccion": "",
  "email": "",
  "web": "",
  "otrosServiciosOfrecidos": "Parqueadero, Montallantas",
  "infoAdicional": "",
  "lng": -73.1295555555556,
  "lat": 7.1570277777778
}, {
  "id": 347,
  "tipo": "parqueaderos",
  "nombre": "",
  "imagen": "fot_12.jpg",
  "municipio": "Bucaramanga",
  "departamento": "Santander",
  "horario": "24 h",
  "direccion": "",
  "email": "",
  "web": "",
  "otrosServiciosOfrecidos": "Parqueadero, Montallantas",
  "infoAdicional": "",
  "lng": -73.1295555555556,
  "lat": 7.1570277777778
}, {
  "id": 351,
  "tipo": "parqueaderos",
  "nombre": "",
  "imagen": "fot_15.jpg",
  "municipio": "Bucaramanga",
  "departamento": "Santander",
  "horario": "24 h",
  "direccion": "",
  "email": "",
  "web": "",
  "otrosServiciosOfrecidos": "Parqueadero, Estación de Servicios, Montallantas, Lavadero",
  "infoAdicional": "",
  "lng": -73.1626666666667,
  "lat": 7.1071666666667
}, {
  "id": 355,
  "tipo": "parqueaderos",
  "nombre": "RODALLANTAS - TORRECAR S.A.",
  "imagen": "31_14_a.jpg",
  "municipio": "Bucaramanga",
  "departamento": "Santander",
  "horario": "24 h",
  "direccion": "",
  "email": "",
  "web": "",
  "otrosServiciosOfrecidos": "Parqueadero, Montallantas",
  "infoAdicional": "",
  "lng": -73.1695833333333,
  "lat": 7.0876388888889
}, {
  "id": 356,
  "tipo": "parqueaderos",
  "nombre": "REPUESTOS EL PALENQUE",
  "imagen": "fot_16.jpg",
  "municipio": "Bucaramanga",
  "departamento": "Santander",
  "horario": "24 h",
  "direccion": "",
  "email": "",
  "web": "",
  "otrosServiciosOfrecidos": "Parqueadero, Montallantas",
  "infoAdicional": "",
  "lng": -73.1710833333333,
  "lat": 7.0803333333333
}, {
  "id": 398,
  "tipo": "parqueaderos",
  "nombre": "PARQUEADERO Y LAVADERO C&C",
  "imagen": "S_16P_b.jpg",
  "municipio": "Santa Marta",
  "departamento": "Magdalena",
  "horario": "24 h",
  "direccion": "Carrera 3 Calle 8-68",
  "email": "",
  "web": "",
  "otrosServiciosOfrecidos": "Parqueadero y Lavadero",
  "infoAdicional": "",
  "lng": -74.2114722222222,
  "lat": 11.2485555555556
}, {
  "id": 399,
  "tipo": "parqueaderos",
  "nombre": "PARQUEADERO TRONCAL DEL CARIBE",
  "imagen": "S_35P_c.jpg",
  "municipio": "Santa Marta",
  "departamento": "Magdalena",
  "horario": "24 h",
  "direccion": "Calle 31 No.29-36 Diag Terminal Transporte",
  "email": "",
  "web": "",
  "otrosServiciosOfrecidos": "Parqueadero, Alojamiento, Baños, Wifi, A/A",
  "infoAdicional": "4 Cabañas de Alojamiento",
  "lng": -74.1826111111111,
  "lat": 11.2191111111111
}, {
  "id": 400,
  "tipo": "parqueaderos",
  "nombre": "PARQUEADERO EL CHINO",
  "imagen": "S_37P_c.jpg",
  "municipio": "Santa Marta",
  "departamento": "Magdalena",
  "horario": "Parqueadero 24 h; Llantería y taller 6 a.m.-6 p.m.",
  "direccion": "Via Alterna Al Puerto Frente A Bodegas 5.5",
  "email": "",
  "web": "",
  "otrosServiciosOfrecidos": "Parqueadero, Llanteria, Lavadero, Muelles, Soldadura",
  "infoAdicional": "Frente a las Bodegas 5.5. Contacto:Fernando Rodriguez",
  "lng": -74.1641944444444,
  "lat": 11.2330833333333
}, {
  "id": 401,
  "tipo": "parqueaderos",
  "nombre": "PARQUEADERO LOMA ALTA(FRENTE A ULTRACEM)",
  "imagen": "B3_4P_b.jpg",
  "municipio": "Barranquilla",
  "departamento": "Atlántico",
  "horario": "24 h",
  "direccion": "",
  "email": "",
  "web": "",
  "otrosServiciosOfrecidos": "Parqueadero, Baños, Refresqueria",
  "infoAdicional": "",
  "lng": -74.8562777777778,
  "lat": 10.9378333333333
}, {
  "id": 402,
  "tipo": "parqueaderos",
  "nombre": "PARQUEADERO Y LAVADERO LA CURVA",
  "imagen": "BB_5P_c.jpg",
  "municipio": "Barrancabermeja",
  "departamento": "Santander",
  "horario": "Parqueadero: 24 h; Taller: 6 a.m.-6 p.m.",
  "direccion": "Km 4 Carretera Nacional - Entrada Al Bosoton Frente A La Empresa De Parafina",
  "email": "",
  "web": "",
  "otrosServiciosOfrecidos": "Parqueadero, Lavadero, Taller de Mecanica General, Montallantas, Engrasadero, Baños, Lavadero de Tractocamiones, Refresqueria, Reparacion Aires Acondicionados Equipo Pesado",
  "infoAdicional": "Taller Rosendo dentro del Parqueadero ( 3123767870). Contiguo Tractoaire Barranca (3207467075-3147280378)",
  "lng": -73.8125277777778,
  "lat": 7.06725
}, {
  "id": 403,
  "tipo": "parqueaderos",
  "nombre": "PARQUEADERO DE TOVAR - MONTALLANTAS EL LOCO",
  "imagen": "BB_6P_b.jpg",
  "municipio": "Barrancabermeja",
  "departamento": "Santander",
  "horario": "Parqueadero: 24 h; Taller: 7 a.m.-6 p.m.",
  "direccion": "Transversal 48 Via Nacional",
  "email": "",
  "web": "",
  "otrosServiciosOfrecidos": "Parqueadero y Montallantas",
  "infoAdicional": "Montallantas",
  "lng": -73.81875,
  "lat": 7.06875
}, {
  "id": 404,
  "tipo": "parqueaderos",
  "nombre": "PARQUEADERO LA ESMERALDA",
  "imagen": "BB_7P_b.jpg",
  "municipio": "Barrancabermeja",
  "departamento": "Santander",
  "horario": "24 h",
  "direccion": "Via Cienaga Brava Saliendo Transversal 48",
  "email": "",
  "web": "",
  "otrosServiciosOfrecidos": "Parquedero, Engrasadero, Lavadero, Montallantas",
  "infoAdicional": "Contacto:Euclides Naranjo",
  "lng": -73.8191111111111,
  "lat": 7.0714166666667
}, {
  "id": 405,
  "tipo": "parqueaderos",
  "nombre": "",
  "imagen": "40_7_a.jpg",
  "municipio": "Ocaña",
  "departamento": "Norte de Santander",
  "horario": "24 h",
  "direccion": "",
  "email": "",
  "web": "",
  "otrosServiciosOfrecidos": "Parqueadero, Montallantas",
  "infoAdicional": "",
  "lng": -73.3495555555556,
  "lat": 8.2423055555556
}, {
  "id": 407,
  "tipo": "parqueaderos",
  "nombre": "PARQUEADERO PEDRO CERVANTES",
  "imagen": "61_5P_b.jpg",
  "municipio": "Barranquilla",
  "departamento": "Atlántico",
  "horario": "24 h",
  "direccion": "Cra 8 No.12-27 Barrio Pasadena",
  "email": "",
  "web": "",
  "otrosServiciosOfrecidos": "Parqueadero, Limpieza y Lavado general",
  "infoAdicional": "40 Tractomulas. Contacto Jesus David Salgado",
  "lng": -74.7724166666667,
  "lat": 10.9488611111111
}, {
  "id": 411,
  "tipo": "parqueaderos",
  "nombre": "MULTISERVICIO LA TORRE",
  "imagen": "BB_8P_b.jpg",
  "municipio": "Barrancabermeja",
  "departamento": "Santander",
  "horario": "Parqueadero: 24 h; Taller: 5 a.m.-5 p.m.",
  "direccion": "Diagonal 54 Transversal 47B-50",
  "email": "",
  "web": "",
  "otrosServiciosOfrecidos": "Parqueadero, Engrasadero, Montallantas, Proximamente Hotel 25 Habitaciones, Restaurante, Refresqueria, Baños, Taller",
  "infoAdicional": "",
  "lng": -73.8211111111111,
  "lat": 7.0707222222222
}, {
  "id": 412,
  "tipo": "parqueaderos",
  "nombre": "PARQUEADERO TRANSUPETROL",
  "imagen": "BB_15C_P_b.jpg",
  "municipio": "Barrancabermeja",
  "departamento": "Santander",
  "horario": "24 h",
  "direccion": "Trasnversal 50T No.47A-70",
  "email": "",
  "web": "",
  "otrosServiciosOfrecidos": "Servicio de Parqueadero y Mantenimiento de Vehiculos",
  "infoAdicional": "",
  "lng": -73.8263888888889,
  "lat": 7.0743055555556
}, {
  "id": 417,
  "tipo": "parqueaderos",
  "nombre": "PARQUEADERO DONDE HUGO",
  "imagen": "61_15P_a.jpg",
  "municipio": "Barranquilla",
  "departamento": "Atlántico",
  "horario": "24 h",
  "direccion": "Via Al Puente Pumarejo - Cra 8B No5-150",
  "email": "",
  "web": "",
  "otrosServiciosOfrecidos": "Parqueadero",
  "infoAdicional": "Capacidad 300 Tractomulas",
  "lng": -74.7679722222222,
  "lat": 10.9503055555556
}, {
  "id": 436,
  "tipo": "parqueaderos",
  "nombre": "PARQUEADERO LUBRIFRENOS",
  "imagen": "79_2P_b.jpg",
  "municipio": "Interurbano",
  "departamento": "Magdalena",
  "horario": "7 a.m.-6 p.m.",
  "direccion": "Frente A La Entrada A Pozos Colorados",
  "email": "",
  "web": "",
  "otrosServiciosOfrecidos": "Mecanica General, Llanteria, Venta de Repuestos, Parqueadero, Restaurante, Soldadura",
  "infoAdicional": "Capacidad 150 Tractomulas",
  "lng": -74.2084444444444,
  "lat": 11.16325
}, {
  "id": 437,
  "tipo": "parqueaderos",
  "nombre": "PARQUEADERO EL MIJITO",
  "imagen": "79_3P_b.jpg",
  "municipio": "Interurbano",
  "departamento": "Magdalena",
  "horario": "Parqueadero 24 h; Restaurantes hasta las 8 p.m.",
  "direccion": "Km 9 Via Alterna Pozos Colorados",
  "email": "parqueaderoylavaderoelmijito@hotmail.com",
  "web": "",
  "otrosServiciosOfrecidos": "Parqueadero, Restaurante, Lavadero, Multiservicios Lubricentro, Refresqueria, Internet",
  "infoAdicional": "Capacidad 200 Tractomulas",
  "lng": -74.2063611111111,
  "lat": 11.1697777777778
}, {
  "id": 440,
  "tipo": "parqueaderos",
  "nombre": "PARQUEADERO Y HOTEL PASO NIVEL",
  "imagen": "80_2P_a.jpg",
  "municipio": "Interurbano",
  "departamento": "Magdalena",
  "horario": "24 h",
  "direccion": "Km 15 Ruta Del Sol Junto A La Linea Ferrea",
  "email": "",
  "web": "",
  "otrosServiciosOfrecidos": "Parqueadero, Lavadero, Alojamiento, Wifi, Baño Privado, Restaurante, Montallantas, Engrase, Servicio Electrico",
  "infoAdicional": "Cap 50 Tractomulas",
  "lng": -74.1751388888889,
  "lat": 11.2066666666667
}, {
  "id": 443,
  "tipo": "parqueaderos",
  "nombre": "PARQUEADERO Y APARTAHOTEL LA OTRA BENDICION DE DIOS",
  "imagen": "81_1P_e.jpg",
  "municipio": "Santa Marta",
  "departamento": "Magdalena",
  "horario": "24 h",
  "direccion": "Calle 30 No.60-252",
  "email": "richi.1980@hotmail.es",
  "web": "",
  "otrosServiciosOfrecidos": "Alojamiento, Parqueadero, Servicios Logisticos de Transporte, Restaurante, Taller de Latoneria y Pintura, Servico de Electricidad, Baños, Refresqueria, Estación de Servicios, Engrase, Llanteria, Cajero Automatico de Banciolombia, Oficina de Servientrega y Deprisa, Almacen de Venta de Repuestos",
  "infoAdicional": "Capacidad: 170 Tractomulas, 11 Habitaciones",
  "lng": -74.1616944444444,
  "lat": 11.2236666666667
}, {
  "id": 444,
  "tipo": "parqueaderos",
  "nombre": "PARQUEADERO 11 DE NOVIEMBRE",
  "imagen": "81_2C_P_c.jpg",
  "municipio": "Santa Marta",
  "departamento": "Magdalena",
  "horario": "Parqueadero 24 h; Restaurante 5 a.m.-3 p.m.",
  "direccion": "Calle 30 No. 70-87 Barrio 11 De Noviembre",
  "email": "",
  "web": "",
  "otrosServiciosOfrecidos": "Parquedero, Restaurante, Llanteria, Lubricantes",
  "infoAdicional": "Capacidad: 150 Tractomulas",
  "lng": -74.156,
  "lat": 11.2247777777778
}, {
  "id": 447,
  "tipo": "parqueaderos",
  "nombre": "PARQUEADERO GARAGOA",
  "imagen": "81_5P_b.jpg",
  "municipio": "Santa Marta",
  "departamento": "Magdalena",
  "horario": "24 h",
  "direccion": "Calle 35 No.70-76 Troncal Del Caribe",
  "email": "",
  "web": "",
  "otrosServiciosOfrecidos": "Parqueadero, Montallantas, Soldadura, Reconstruccion de Chasis",
  "infoAdicional": "Contacto:Carlos Escorcia. Cap: 30 Tractomulas",
  "lng": -74.1495833333333,
  "lat": 11.2271944444444
}, {
  "id": 466,
  "tipo": "parqueaderos",
  "nombre": "ALGODONAL",
  "imagen": "41_6_b.jpg",
  "municipio": "Interurbano",
  "departamento": "Norte de Santander",
  "horario": "24 h",
  "direccion": "",
  "email": "",
  "web": "",
  "otrosServiciosOfrecidos": "Estación de Servicios, Parqueadero",
  "infoAdicional": "",
  "lng": -73.2411111111111,
  "lat": 8.1028055555556
}, {
  "id": 475,
  "tipo": "parqueaderos",
  "nombre": "",
  "imagen": "-",
  "municipio": "Interurbano",
  "departamento": "Norte de Santander",
  "horario": "24 h",
  "direccion": "",
  "email": "",
  "web": "",
  "otrosServiciosOfrecidos": "Parqueadero",
  "infoAdicional": "",
  "lng": -72.8766944444444,
  "lat": 8.1205555555556
}, {
  "id": 476,
  "tipo": "parqueaderos",
  "nombre": "",
  "imagen": "-",
  "municipio": "Interurbano",
  "departamento": "Norte de Santander",
  "horario": "24 h",
  "direccion": "",
  "email": "",
  "web": "",
  "otrosServiciosOfrecidos": "Parqueadero",
  "infoAdicional": "",
  "lng": -72.8380555555556,
  "lat": 8.0776388888889
}, {
  "id": 489,
  "tipo": "parqueaderos",
  "nombre": "VALENTINA",
  "imagen": "46_4_A.jpg",
  "municipio": "Interurbano",
  "departamento": "Norte de Santander",
  "horario": "24 h",
  "direccion": "",
  "email": "",
  "web": "",
  "otrosServiciosOfrecidos": "Parqueadero",
  "infoAdicional": "",
  "lng": -72.5483333333333,
  "lat": 7.9292222222222
}, {
  "id": 491,
  "tipo": "parqueaderos",
  "nombre": "EL TRIGAL",
  "imagen": "46_10_B.jpg",
  "municipio": "Cúcuta",
  "departamento": "Norte de Santander",
  "horario": "24 h",
  "direccion": "",
  "email": "",
  "web": "",
  "otrosServiciosOfrecidos": "Parqueadero, Montallantas, Lavadero",
  "infoAdicional": "",
  "lng": -72.5066388888889,
  "lat": 7.9507777777778
}, {
  "id": 493,
  "tipo": "parqueaderos",
  "nombre": "TOTUMO",
  "imagen": "fot_46_13.jpg",
  "municipio": "Cúcuta",
  "departamento": "Norte de Santander",
  "horario": "24 h",
  "direccion": "",
  "email": "",
  "web": "",
  "otrosServiciosOfrecidos": "Parqueadero, Montallantas",
  "infoAdicional": "",
  "lng": -72.5030277777778,
  "lat": 7.94825
}, {
  "id": 494,
  "tipo": "parqueaderos",
  "nombre": "PIPO",
  "imagen": "fot_46_14.jpg",
  "municipio": "Cúcuta",
  "departamento": "Norte de Santander",
  "horario": "24 h",
  "direccion": "",
  "email": "",
  "web": "",
  "otrosServiciosOfrecidos": "Parqueadero, Montallantas",
  "infoAdicional": "En frente Restaurante Kisoco Ocañero",
  "lng": -72.5014444444444,
  "lat": 7.9471666666667
}, {
  "id": 496,
  "tipo": "parqueaderos",
  "nombre": "",
  "imagen": "fot_46_17.jpg",
  "municipio": "Cúcuta",
  "departamento": "Norte de Santander",
  "horario": "24 h",
  "direccion": "",
  "email": "",
  "web": "",
  "otrosServiciosOfrecidos": "Parqueadero, Montallantas",
  "infoAdicional": "",
  "lng": -72.4901666666667,
  "lat": 7.936
}, {
  "id": 498,
  "tipo": "parqueaderos",
  "nombre": "LA FRONTERA",
  "imagen": "46_19_A.jpg",
  "municipio": "Cúcuta",
  "departamento": "Norte de Santander",
  "horario": "24 h",
  "direccion": "",
  "email": "",
  "web": "",
  "otrosServiciosOfrecidos": "Parqueadero, Alojamiento, Restaurante, Montallantas, Lavadero, Báscula",
  "infoAdicional": "Contiguo Parqueadero y Restaurante Aventura",
  "lng": -72.4765833333333,
  "lat": 7.9205277777778
}, {
  "id": 513,
  "tipo": "parqueaderos",
  "nombre": "LA ALHAMBRA",
  "imagen": "48.5.jpg",
  "municipio": "Interurbano",
  "departamento": "Caldas",
  "horario": "24 h",
  "direccion": "",
  "email": "laalhambra@combured.co",
  "web": "",
  "otrosServiciosOfrecidos": "Parqueadero, Restaurante, Alojamiento, Montallantas",
  "infoAdicional": "",
  "lng": -74.7361388888889,
  "lat": 5.3441666666667
}, {
  "id": 514,
  "tipo": "parqueaderos",
  "nombre": "GUARINOCITO",
  "imagen": "48.6.jpg",
  "municipio": "Interurbano",
  "departamento": "Caldas",
  "horario": "24 h",
  "direccion": "",
  "email": "servicentroguarinocito@hotmail.com",
  "web": "",
  "otrosServiciosOfrecidos": "Parqueadero, Restaurante, Alojamiento, Montallantas",
  "infoAdicional": "",
  "lng": -74.7372777777778,
  "lat": 5.3411111111111
}, {
  "id": 527,
  "tipo": "parqueaderos",
  "nombre": "PARQUEADERO EL FLACO",
  "imagen": "90_6_C_P_b.jpg",
  "municipio": "Paraguachón",
  "departamento": "Guajira",
  "horario": "24 h",
  "direccion": "Troncal Del Caribe, Paraguachon La Raya",
  "email": "",
  "web": "",
  "otrosServiciosOfrecidos": "Parqueadero, Restaurante, Alojamiento, Montallantas",
  "infoAdicional": "6 Habitaciones por el momento. Contacto: Juan Pable Hurtado",
  "lng": -72.1305,
  "lat": 11.3603888888889
}, {
  "id": 529,
  "tipo": "parqueaderos",
  "nombre": "HOTEL Y PARQUEADERO TRIPLE 7",
  "imagen": "90_8_C_P_a.jpg",
  "municipio": "Paraguachón",
  "departamento": "Guajira",
  "horario": "24 h",
  "direccion": "",
  "email": "",
  "web": "",
  "otrosServiciosOfrecidos": "Alojamiento, Parqueadero",
  "infoAdicional": "24 Habitaciones, 60 Tractomulas",
  "lng": -72.1308888888889,
  "lat": 11.3606944444444
}, {
  "id": 533,
  "tipo": "parqueaderos",
  "nombre": "PARQUEADERO EL PAISA",
  "imagen": "50_2_P_c.jpg",
  "municipio": "San Roque",
  "departamento": "César",
  "horario": "24 h",
  "direccion": "",
  "email": "",
  "web": "",
  "otrosServiciosOfrecidos": "Parqueadero, Alojamiento, TV, Baño Privado",
  "infoAdicional": "Espacio para 20 Tractomulas. 6 habitaciones disponibles. Contacto: Leyla Jimenez",
  "lng": -73.5116111111111,
  "lat": 9.28675
}, {
  "id": 559,
  "tipo": "parqueaderos",
  "nombre": "PARQUEADERO Y LLANTERIA NO HAY COMO DIOS",
  "imagen": "49_3_T_a.jpg",
  "municipio": "Pailitas",
  "departamento": "César",
  "horario": "24 h",
  "direccion": "Salida A La Costa Pailitas",
  "email": "",
  "web": "",
  "otrosServiciosOfrecidos": "Reparacion Tecnica de Llantas y Parqueadero",
  "infoAdicional": "Zona de Hospedajes y Restaurantes de Pailitas. Parqueadero del Hotel y Restaurante Yorley. Cel: 3107331384",
  "lng": -73.6264444444444,
  "lat": 8.9656388888889
}, {
  "id": 621,
  "tipo": "parqueaderos",
  "nombre": "PARQUEADERO MANIZALEZ",
  "imagen": "S_2P_a.jpg",
  "municipio": "Santa Marta",
  "departamento": "Magdalena",
  "horario": "24 h",
  "direccion": "Calle 10B Avda Ferrocarril",
  "email": "",
  "web": "",
  "otrosServiciosOfrecidos": "Parqueadero, Baños",
  "infoAdicional": "Parqueadero Hotel Manizalez. Contacto: Richard Alvarez",
  "lng": -74.2113888888889,
  "lat": 11.2473888888889
}]

